,stop_name,line_num,stop_id,route_id,stop_lat,stop_lon,node_id
0,1 Av,1,L06,L,40.730953,-73.981628,L06_L
1,103 St,6,119,1,40.799446,-73.968379,119_1
2,103 St,6,624,4,40.7906,-73.947478,624_4
3,103 St,6,624,6,40.7906,-73.947478,624_6
4,103 St,6,A18,A,40.796092,-73.961454,A18_A
5,103 St,6,A18,B,40.796092,-73.961454,A18_B
6,103 St,6,A18,C,40.796092,-73.961454,A18_C
7,103 St - Corona Plaza,1,706,7,40.749865,-73.8627,706_7
8,104 St,2,A63,A,40.681711,-73.837683,A63_A
9,104 St,2,J14,J,40.695178,-73.84433,J14_J
10,110 St,2,623,4,40.79502,-73.94425,623_4
11,110 St,2,623,6,40.79502,-73.94425,623_6
12,111 St,3,705,7,40.75173,-73.855334,705_7
13,111 St,3,A64,A,40.684331,-73.832163,A64_A
14,111 St,3,J13,J,40.697418,-73.836345,J13_J
15,116 St,8,226,2,40.802098,-73.949625,226_2
16,116 St,8,226,3,40.802098,-73.949625,226_3
17,116 St,8,622,4,40.798629,-73.941617,622_4
18,116 St,8,226,5,40.802098,-73.949625,226_5
19,116 St,8,622,6,40.798629,-73.941617,622_6
20,116 St,8,A16,A,40.805085,-73.954882,A16_A
21,116 St,8,A16,B,40.805085,-73.954882,A16_B
22,116 St,8,A16,C,40.805085,-73.954882,A16_C
23,116 St - Columbia University,1,117,1,40.807722,-73.96411,117_1
24,121 St,1,J12,J,40.700492,-73.828294,J12_J
25,125 St,12,116,1,40.815581,-73.958372,116_1
26,125 St,12,225,2,40.807754,-73.945495,225_2
27,125 St,12,621,2,40.804138,-73.937594,621_2
28,125 St,12,225,3,40.807754,-73.945495,225_3
29,125 St,12,621,4,40.804138,-73.937594,621_4
30,125 St,12,225,5,40.807754,-73.945495,225_5
31,125 St,12,621,5,40.804138,-73.937594,621_5
32,125 St,12,621,6,40.804138,-73.937594,621_6
33,125 St,12,A15,A,40.811109,-73.952343,A15_A
34,125 St,12,A15,B,40.811109,-73.952343,A15_B
35,125 St,12,A15,C,40.811109,-73.952343,A15_C
36,125 St,12,A15,D,40.811109,-73.952343,A15_D
37,135 St,6,224,2,40.814229,-73.94077,224_2
38,135 St,6,224,3,40.814229,-73.94077,224_3
39,135 St,6,224,5,40.814229,-73.94077,224_5
40,135 St,6,A14,A,40.817894,-73.947649,A14_A
41,135 St,6,A14,B,40.817894,-73.947649,A14_B
42,135 St,6,A14,C,40.817894,-73.947649,A14_C
43,137 St - City College,1,115,1,40.822008,-73.953676,115_1
44,138 St - Grand Concourse,3,416,2,40.813224,-73.929849,416_2
45,138 St - Grand Concourse,3,416,4,40.813224,-73.929849,416_4
46,138 St - Grand Concourse,3,416,5,40.813224,-73.929849,416_5
47,14 St,9,132,1,40.737826,-74.000201,132_1
48,14 St,9,132,2,40.737826,-74.000201,132_2
49,14 St,9,132,3,40.737826,-74.000201,132_3
50,14 St,9,132,5,40.737826,-74.000201,132_5
51,14 St,9,A31,A,40.740893,-74.00169,A31_A
52,14 St,9,A31,C,40.740893,-74.00169,A31_C
53,14 St,9,A31,E,40.740893,-74.00169,A31_E
54,14 St,9,D19,F,40.738228,-73.996209,D19_F
55,14 St,9,D19,M,40.738228,-73.996209,D19_M
56,14 St - Union Sq,8,635,2,40.734673,-73.989951,635_2
57,14 St - Union Sq,8,635,4,40.734673,-73.989951,635_4
58,14 St - Union Sq,8,635,5,40.734673,-73.989951,635_5
59,14 St - Union Sq,8,635,6,40.734673,-73.989951,635_6
60,14 St - Union Sq,8,R20,N,40.735736,-73.990568,R20_N
61,14 St - Union Sq,8,R20,Q,40.735736,-73.990568,R20_Q
62,14 St - Union Sq,8,R20,R,40.735736,-73.990568,R20_R
63,14 St - Union Sq,8,R20,W,40.735736,-73.990568,R20_W
64,145 St,7,114,1,40.826551,-73.95036,114_1
65,145 St,7,302,3,40.820421,-73.936245,302_3
66,145 St,7,A12,A,40.824783,-73.944216,A12_A
67,145 St,7,A12,B,40.824783,-73.944216,A12_B
68,145 St,7,D13,B,40.824783,-73.944216,D13_B
69,145 St,7,A12,C,40.824783,-73.944216,A12_C
70,145 St,7,D13,D,40.824783,-73.944216,D13_D
71,149 St - Grand Concourse,3,222,2,40.81841,-73.926718,222_2
72,149 St - Grand Concourse,3,415,4,40.818375,-73.927351,415_4
73,149 St - Grand Concourse,3,222,5,40.81841,-73.926718,222_5
74,15 St - Prospect Park,2,F25,F,40.660365,-73.979493,F25_F
75,15 St - Prospect Park,2,F25,G,40.660365,-73.979493,F25_G
76,155 St,4,A11,A,40.830518,-73.941514,A11_A
77,155 St,4,D12,B,40.830135,-73.938209,D12_B
78,155 St,4,A11,C,40.830518,-73.941514,A11_C
79,155 St,4,D12,D,40.830135,-73.938209,D12_D
80,157 St,1,113,1,40.834041,-73.94489,113_1
81,161 St - Yankee Stadium,3,414,4,40.827994,-73.925831,414_4
82,161 St - Yankee Stadium,3,D11,B,40.827905,-73.925651,D11_B
83,161 St - Yankee Stadium,3,D11,D,40.827905,-73.925651,D11_D
84,163 St - Amsterdam Av,2,A10,A,40.836013,-73.939892,A10_A
85,163 St - Amsterdam Av,2,A10,C,40.836013,-73.939892,A10_C
86,167 St,3,413,4,40.835537,-73.9214,413_4
87,167 St,3,D10,B,40.833771,-73.91844,D10_B
88,167 St,3,D10,D,40.833771,-73.91844,D10_D
89,168 St,2,A09,A,40.840719,-73.939561,A09_A
90,168 St,2,A09,C,40.840719,-73.939561,A09_C
91,168 St - Washington Hts,1,112,1,40.840556,-73.940133,112_1
92,169 St,1,F02,F,40.71047,-73.793604,F02_F
93,170 St,3,412,4,40.840075,-73.917791,412_4
94,170 St,3,D09,B,40.839306,-73.9134,D09_B
95,170 St,3,D09,D,40.839306,-73.9134,D09_D
96,174 St,2,215,2,40.837288,-73.887734,215_2
97,174 St,2,215,5,40.837288,-73.887734,215_5
98,174-175 Sts,2,D08,B,40.8459,-73.910136,D08_B
99,174-175 Sts,2,D08,D,40.8459,-73.910136,D08_D
100,175 St,1,A07,A,40.847391,-73.939704,A07_A
101,176 St,1,410,4,40.84848,-73.911794,410_4
102,18 Av,3,B19,D,40.607954,-74.001736,B19_D
103,18 Av,3,F30,F,40.629755,-73.976971,F30_F
104,18 Av,3,N05,N,40.620671,-73.990414,N05_N
105,18 St,3,131,1,40.74104,-73.997871,131_1
106,18 St,3,131,2,40.74104,-73.997871,131_2
107,18 St,3,131,5,40.74104,-73.997871,131_5
108,181 St,2,111,1,40.849505,-73.933596,111_1
109,181 St,2,A06,A,40.851695,-73.937969,A06_A
110,182-183 Sts,2,D06,B,40.856093,-73.900741,D06_B
111,182-183 Sts,2,D06,D,40.856093,-73.900741,D06_D
112,183 St,1,408,4,40.858407,-73.903879,408_4
113,190 St,1,A05,A,40.859022,-73.93418,A05_A
114,191 St,1,110,1,40.855225,-73.929412,110_1
115,2 Av,2,F14,F,40.723402,-73.989938,F14_F
116,2 Av,2,F14,M,40.723402,-73.989938,F14_M
117,20 Av,2,B20,D,40.604556,-73.998168,B20_D
118,20 Av,2,N06,N,40.61741,-73.985026,N06_N
119,207 St,1,108,1,40.864621,-73.918822,108_1
120,21 St,1,G24,G,40.744065,-73.949724,G24_G
121,21 St - Queensbridge,1,B04,F,40.754203,-73.942836,B04_F
122,215 St,1,107,1,40.869444,-73.915279,107_1
123,219 St,2,207,2,40.883895,-73.862633,207_2
124,219 St,2,207,5,40.883895,-73.862633,207_5
125,225 St,2,206,2,40.888022,-73.860341,206_2
126,225 St,2,206,5,40.888022,-73.860341,206_5
127,23 St,14,130,1,40.744081,-73.995657,130_1
128,23 St,14,130,2,40.744081,-73.995657,130_2
129,23 St,14,634,4,40.739864,-73.986599,634_4
130,23 St,14,130,5,40.744081,-73.995657,130_5
131,23 St,14,634,6,40.739864,-73.986599,634_6
132,23 St,14,A30,A,40.745906,-73.998041,A30_A
133,23 St,14,A30,C,40.745906,-73.998041,A30_C
134,23 St,14,A30,E,40.745906,-73.998041,A30_E
135,23 St,14,D18,F,40.742878,-73.992821,D18_F
136,23 St,14,D18,M,40.742878,-73.992821,D18_M
137,23 St,14,R19,N,40.741303,-73.989344,R19_N
138,23 St,14,R19,Q,40.741303,-73.989344,R19_Q
139,23 St,14,R19,R,40.741303,-73.989344,R19_R
140,23 St,14,R19,W,40.741303,-73.989344,R19_W
141,231 St,1,104,1,40.878856,-73.904834,104_1
142,233 St,2,205,2,40.893193,-73.857473,205_2
143,233 St,2,205,5,40.893193,-73.857473,205_5
144,238 St,1,103,1,40.884667,-73.90087,103_1
145,25 Av,1,B22,D,40.597704,-73.986829,B22_D
146,25 St,3,R35,D,40.660397,-73.998091,R35_D
147,25 St,3,R35,N,40.660397,-73.998091,R35_N
148,25 St,3,R35,R,40.660397,-73.998091,R35_R
149,28 St,9,129,1,40.747215,-73.993365,129_1
150,28 St,9,129,2,40.747215,-73.993365,129_2
151,28 St,9,633,4,40.74307,-73.984264,633_4
152,28 St,9,129,5,40.747215,-73.993365,129_5
153,28 St,9,633,6,40.74307,-73.984264,633_6
154,28 St,9,R18,N,40.745494,-73.988691,R18_N
155,28 St,9,R18,Q,40.745494,-73.988691,R18_Q
156,28 St,9,R18,R,40.745494,-73.988691,R18_R
157,28 St,9,R18,W,40.745494,-73.988691,R18_W
158,3 Av,1,L05,L,40.732849,-73.986122,L05_L
159,3 Av - 138 St,1,619,6,40.810476,-73.926138,619_6
160,3 Av - 149 St,2,221,2,40.816109,-73.917757,221_2
161,3 Av - 149 St,2,221,5,40.816109,-73.917757,221_5
162,30 Av,2,R04,N,40.766779,-73.921479,R04_N
163,30 Av,2,R04,W,40.766779,-73.921479,R04_W
164,33 St,3,632,4,40.746081,-73.982076,632_4
165,33 St,3,632,6,40.746081,-73.982076,632_6
166,33 St,3,716,7,40.744587,-73.930997,716_7
167,34 St - 11 Av,1,726,7,40.755882,-74.00191,726_7
168,34 St - Herald Sq,8,D17,B,40.749719,-73.987823,D17_B
169,34 St - Herald Sq,8,D17,D,40.749719,-73.987823,D17_D
170,34 St - Herald Sq,8,D17,F,40.749719,-73.987823,D17_F
171,34 St - Herald Sq,8,D17,M,40.749719,-73.987823,D17_M
172,34 St - Herald Sq,8,R17,N,40.749567,-73.98795,R17_N
173,34 St - Herald Sq,8,R17,Q,40.749567,-73.98795,R17_Q
174,34 St - Herald Sq,8,R17,R,40.749567,-73.98795,R17_R
175,34 St - Herald Sq,8,R17,W,40.749567,-73.98795,R17_W
176,34 St - Penn Station,7,128,1,40.750373,-73.991057,128_1
177,34 St - Penn Station,7,128,2,40.750373,-73.991057,128_2
178,34 St - Penn Station,7,128,3,40.750373,-73.991057,128_3
179,34 St - Penn Station,7,128,5,40.750373,-73.991057,128_5
180,34 St - Penn Station,7,A28,A,40.752287,-73.993391,A28_A
181,34 St - Penn Station,7,A28,C,40.752287,-73.993391,A28_C
182,34 St - Penn Station,7,A28,E,40.752287,-73.993391,A28_E
183,36 Av,2,R06,N,40.756804,-73.929575,R06_N
184,36 Av,2,R06,W,40.756804,-73.929575,R06_W
185,36 St,6,R36,D,40.655144,-74.003549,R36_D
186,36 St,6,G20,E,40.752039,-73.928781,G20_E
187,36 St,6,G20,M,40.752039,-73.928781,G20_M
188,36 St,6,R36,N,40.655144,-74.003549,R36_N
189,36 St,6,G20,R,40.752039,-73.928781,G20_R
190,36 St,6,R36,R,40.655144,-74.003549,R36_R
191,39 Av,2,R08,N,40.752882,-73.932755,R08_N
192,39 Av,2,R08,W,40.752882,-73.932755,R08_W
193,4 Av,2,F23,F,40.670272,-73.989779,F23_F
194,4 Av,2,F23,G,40.670272,-73.989779,F23_G
195,40 St,1,715,7,40.743781,-73.924016,715_7
196,42 St - Bryant Pk,4,D16,B,40.754222,-73.984569,D16_B
197,42 St - Bryant Pk,4,D16,D,40.754222,-73.984569,D16_D
198,42 St - Bryant Pk,4,D16,F,40.754222,-73.984569,D16_F
199,42 St - Bryant Pk,4,D16,M,40.754222,-73.984569,D16_M
200,42 St - Port Authority Bus Terminal,3,A27,A,40.757308,-73.989735,A27_A
201,42 St - Port Authority Bus Terminal,3,A27,C,40.757308,-73.989735,A27_C
202,42 St - Port Authority Bus Terminal,3,A27,E,40.757308,-73.989735,A27_E
203,45 St,2,R39,N,40.648939,-74.010006,R39_N
204,45 St,2,R39,R,40.648939,-74.010006,R39_R
205,46 St,4,714,7,40.743132,-73.918435,714_7
206,46 St,4,G18,E,40.756312,-73.913333,G18_E
207,46 St,4,G18,M,40.756312,-73.913333,G18_M
208,46 St,4,G18,R,40.756312,-73.913333,G18_R
209,47-50 Sts - Rockefeller Ctr,4,D15,B,40.758663,-73.981329,D15_B
210,47-50 Sts - Rockefeller Ctr,4,D15,D,40.758663,-73.981329,D15_D
211,47-50 Sts - Rockefeller Ctr,4,D15,F,40.758663,-73.981329,D15_F
212,47-50 Sts - Rockefeller Ctr,4,D15,M,40.758663,-73.981329,D15_M
213,49 St,4,R15,N,40.759901,-73.984139,R15_N
214,49 St,4,R15,Q,40.759901,-73.984139,R15_Q
215,49 St,4,R15,R,40.759901,-73.984139,R15_R
216,49 St,4,R15,W,40.759901,-73.984139,R15_W
217,5 Av,1,724,7,40.753821,-73.981963,724_7
218,5 Av/53 St,2,F12,E,40.760167,-73.975224,F12_E
219,5 Av/53 St,2,F12,M,40.760167,-73.975224,F12_M
220,5 Av/59 St,3,R13,N,40.764811,-73.973347,R13_N
221,5 Av/59 St,3,R13,R,40.764811,-73.973347,R13_R
222,5 Av/59 St,3,R13,W,40.764811,-73.973347,R13_W
223,50 St,7,126,1,40.761728,-73.983849,126_1
224,50 St,7,126,2,40.761728,-73.983849,126_2
225,50 St,7,126,5,40.761728,-73.983849,126_5
226,50 St,7,A25,A,40.762456,-73.985984,A25_A
227,50 St,7,A25,C,40.762456,-73.985984,A25_C
228,50 St,7,B14,D,40.63626,-73.994791,B14_D
229,50 St,7,A25,E,40.762456,-73.985984,A25_E
230,51 St,2,630,4,40.757107,-73.97192,630_4
231,51 St,2,630,6,40.757107,-73.97192,630_6
232,52 St,1,713,7,40.744149,-73.912549,713_7
233,53 St,2,R40,N,40.645069,-74.014034,R40_N
234,53 St,2,R40,R,40.645069,-74.014034,R40_R
235,55 St,1,B15,D,40.631435,-73.995476,B15_D
236,57 St,1,B10,F,40.763972,-73.97745,B10_F
237,57 St - 7 Av,4,R14,N,40.764664,-73.980658,R14_N
238,57 St - 7 Av,4,R14,Q,40.764664,-73.980658,R14_Q
239,57 St - 7 Av,4,R14,R,40.764664,-73.980658,R14_R
240,57 St - 7 Av,4,R14,W,40.764664,-73.980658,R14_W
241,59 St,6,629,2,40.762526,-73.967967,629_2
242,59 St,6,629,4,40.762526,-73.967967,629_4
243,59 St,6,629,5,40.762526,-73.967967,629_5
244,59 St,6,629,6,40.762526,-73.967967,629_6
245,59 St,6,R41,N,40.641362,-74.017881,R41_N
246,59 St,6,R41,R,40.641362,-74.017881,R41_R
247,59 St - Columbus Circle,7,125,1,40.768247,-73.981929,125_1
248,59 St - Columbus Circle,7,125,2,40.768247,-73.981929,125_2
249,59 St - Columbus Circle,7,125,5,40.768247,-73.981929,125_5
250,59 St - Columbus Circle,7,A24,A,40.768296,-73.981736,A24_A
251,59 St - Columbus Circle,7,A24,B,40.768296,-73.981736,A24_B
252,59 St - Columbus Circle,7,A24,C,40.768296,-73.981736,A24_C
253,59 St - Columbus Circle,7,A24,D,40.768296,-73.981736,A24_D
254,6 Av,1,L02,L,40.737335,-73.996786,L02_L
255,62 St,1,B16,D,40.626472,-73.996895,B16_D
256,63 Dr - Rego Park,3,G10,E,40.729846,-73.861604,G10_E
257,63 Dr - Rego Park,3,G10,M,40.729846,-73.861604,G10_M
258,63 Dr - Rego Park,3,G10,R,40.729846,-73.861604,G10_R
259,65 St,3,G15,E,40.749669,-73.898453,G15_E
260,65 St,3,G15,M,40.749669,-73.898453,G15_M
261,65 St,3,G15,R,40.749669,-73.898453,G15_R
262,66 St - Lincoln Center,3,124,1,40.77344,-73.982209,124_1
263,66 St - Lincoln Center,3,124,2,40.77344,-73.982209,124_2
264,66 St - Lincoln Center,3,124,5,40.77344,-73.982209,124_5
265,67 Av,3,G09,E,40.726523,-73.852719,G09_E
266,67 Av,3,G09,M,40.726523,-73.852719,G09_M
267,67 Av,3,G09,R,40.726523,-73.852719,G09_R
268,68 St - Hunter College,2,628,4,40.768141,-73.96387,628_4
269,68 St - Hunter College,2,628,6,40.768141,-73.96387,628_6
270,69 St,1,711,7,40.746325,-73.896403,711_7
271,7 Av,7,D14,B,40.762862,-73.981637,D14_B
272,7 Av,7,D25,B,40.67705,-73.972367,D25_B
273,7 Av,7,D14,D,40.762862,-73.981637,D14_D
274,7 Av,7,D14,E,40.762862,-73.981637,D14_E
275,7 Av,7,F24,F,40.666271,-73.980305,F24_F
276,7 Av,7,F24,G,40.666271,-73.980305,F24_G
277,7 Av,7,D25,Q,40.67705,-73.972367,D25_Q
278,71 St,1,B17,D,40.619589,-73.998864,B17_D
279,72 St,10,123,1,40.778453,-73.98197,123_1
280,72 St,10,123,2,40.778453,-73.98197,123_2
281,72 St,10,123,3,40.778453,-73.98197,123_3
282,72 St,10,123,5,40.778453,-73.98197,123_5
283,72 St,10,A22,A,40.775594,-73.97641,A22_A
284,72 St,10,A22,B,40.775594,-73.97641,A22_B
285,72 St,10,A22,C,40.775594,-73.97641,A22_C
286,72 St,10,Q03,N,40.768799,-73.958424,Q03_N
287,72 St,10,Q03,Q,40.768799,-73.958424,Q03_Q
288,72 St,10,Q03,R,40.768799,-73.958424,Q03_R
289,74 St - Broadway,1,710,7,40.746848,-73.891394,710_7
290,75 Av,2,F07,E,40.718331,-73.837324,F07_E
291,75 Av,2,F07,F,40.718331,-73.837324,F07_F
292,75 St,1,J17,J,40.691324,-73.867139,J17_J
293,77 St,3,627,4,40.77362,-73.959874,627_4
294,77 St,3,627,6,40.77362,-73.959874,627_6
295,77 St,3,R43,R,40.629742,-74.02551,R43_R
296,79 St,4,122,1,40.783934,-73.979917,122_1
297,79 St,4,122,2,40.783934,-73.979917,122_2
298,79 St,4,122,5,40.783934,-73.979917,122_5
299,79 St,4,B18,D,40.613501,-74.00061,B18_D
300,8 Av,2,L01,L,40.739777,-74.002578,L01_L
301,8 Av,2,N02,N,40.635064,-74.011719,N02_N
302,8 St - NYU,4,R21,N,40.730328,-73.992629,R21_N
303,8 St - NYU,4,R21,Q,40.730328,-73.992629,R21_Q
304,8 St - NYU,4,R21,R,40.730328,-73.992629,R21_R
305,8 St - NYU,4,R21,W,40.730328,-73.992629,R21_W
306,80 St,1,A59,A,40.679371,-73.858992,A59_A
307,81 St - Museum of Natural History,3,A21,A,40.781433,-73.972143,A21_A
308,81 St - Museum of Natural History,3,A21,B,40.781433,-73.972143,A21_B
309,81 St - Museum of Natural History,3,A21,C,40.781433,-73.972143,A21_C
310,82 St - Jackson Hts,1,709,7,40.747659,-73.883697,709_7
311,85 St - Forest Pkwy,1,J16,J,40.692435,-73.86001,J16_J
312,86 St,15,121,1,40.788644,-73.976218,121_1
313,86 St,15,121,2,40.788644,-73.976218,121_2
314,86 St,15,626,2,40.779492,-73.955589,626_2
315,86 St,15,626,4,40.779492,-73.955589,626_4
316,86 St,15,121,5,40.788644,-73.976218,121_5
317,86 St,15,626,5,40.779492,-73.955589,626_5
318,86 St,15,626,6,40.779492,-73.955589,626_6
319,86 St,15,A20,A,40.785868,-73.968916,A20_A
320,86 St,15,A20,B,40.785868,-73.968916,A20_B
321,86 St,15,A20,C,40.785868,-73.968916,A20_C
322,86 St,15,N10,N,40.592721,-73.97823,N10_N
323,86 St,15,Q04,N,40.777891,-73.951787,Q04_N
324,86 St,15,Q04,Q,40.777891,-73.951787,Q04_Q
325,86 St,15,Q04,R,40.777891,-73.951787,Q04_R
326,86 St,15,R44,R,40.622687,-74.028398,R44_R
327,88 St,1,A60,A,40.679843,-73.85147,A60_A
328,9 Av,1,B12,D,40.646292,-73.994324,B12_D
329,9 St,3,R33,D,40.670847,-73.988302,R33_D
330,9 St,3,R33,N,40.670847,-73.988302,R33_N
331,9 St,3,R33,R,40.670847,-73.988302,R33_R
332,90 St - Elmhurst Av,1,708,7,40.748408,-73.876613,708_7
333,96 St,12,120,1,40.793919,-73.972323,120_1
334,96 St,12,120,2,40.793919,-73.972323,120_2
335,96 St,12,120,3,40.793919,-73.972323,120_3
336,96 St,12,625,4,40.785672,-73.95107,625_4
337,96 St,12,120,5,40.793919,-73.972323,120_5
338,96 St,12,625,6,40.785672,-73.95107,625_6
339,96 St,12,A19,A,40.791642,-73.964696,A19_A
340,96 St,12,A19,B,40.791642,-73.964696,A19_B
341,96 St,12,A19,C,40.791642,-73.964696,A19_C
342,96 St,12,Q05,N,40.784318,-73.947152,Q05_N
343,96 St,12,Q05,Q,40.784318,-73.947152,Q05_Q
344,96 St,12,Q05,R,40.784318,-73.947152,Q05_R
345,Alabama Av,1,J24,J,40.676992,-73.898654,J24_J
346,Allerton Av,2,210,2,40.865462,-73.867352,210_2
347,Allerton Av,2,210,5,40.865462,-73.867352,210_5
348,Annadale,1,S17,SI,40.54046,-74.178217,S17_SI
349,Aqueduct - N Conduit Av,1,H02,A,40.668234,-73.834058,H02_A
350,Aqueduct Racetrack,1,H01,A,40.668234,-73.834058,H01_A
351,Arthur Kill,1,S11,SI,40.516578,-74.242096,S11_SI
352,Astor Pl,2,636,4,40.730054,-73.99107,636_4
353,Astor Pl,2,636,6,40.730054,-73.99107,636_6
354,Astoria - Ditmars Blvd,2,R01,N,40.775036,-73.912034,R01_N
355,Astoria - Ditmars Blvd,2,R01,W,40.775036,-73.912034,R01_W
356,Astoria Blvd,2,R03,N,40.770258,-73.917843,R03_N
357,Astoria Blvd,2,R03,W,40.770258,-73.917843,R03_W
358,Atlantic Av,1,L24,L,40.675345,-73.903097,L24_L
359,Atlantic Av - Barclays Ctr,9,235,2,40.684359,-73.977666,235_2
360,Atlantic Av - Barclays Ctr,9,235,3,40.684359,-73.977666,235_3
361,Atlantic Av - Barclays Ctr,9,235,4,40.684359,-73.977666,235_4
362,Atlantic Av - Barclays Ctr,9,235,5,40.684359,-73.977666,235_5
363,Atlantic Av - Barclays Ctr,9,D24,B,40.68446,-73.97689,D24_B
364,Atlantic Av - Barclays Ctr,9,R31,D,40.683666,-73.97881,R31_D
365,Atlantic Av - Barclays Ctr,9,R31,N,40.683666,-73.97881,R31_N
366,Atlantic Av - Barclays Ctr,9,D24,Q,40.68446,-73.97689,D24_Q
367,Atlantic Av - Barclays Ctr,9,R31,R,40.683666,-73.97881,R31_R
368,Avenue H,1,D32,Q,40.62927,-73.961639,D32_Q
369,Avenue I,1,F31,F,40.625322,-73.976127,F31_F
370,Avenue J,1,D33,Q,40.625039,-73.960803,D33_Q
371,Avenue M,1,D34,Q,40.617618,-73.959399,D34_Q
372,Avenue N,1,F33,F,40.61514,-73.974197,F33_F
373,Avenue P,1,F34,F,40.608944,-73.973022,F34_F
374,Avenue U,3,F36,F,40.596063,-73.973357,F36_F
375,Avenue U,3,N09,N,40.597473,-73.979137,N09_N
376,Avenue U,3,D37,Q,40.5993,-73.955929,D37_Q
377,Avenue X,1,F38,F,40.58962,-73.97425,F38_F
378,Bay 50 St,1,B23,D,40.588841,-73.983765,B23_D
379,Bay Pkwy,3,B21,D,40.601875,-73.993728,B21_D
380,Bay Pkwy,3,F32,F,40.620769,-73.975264,F32_F
381,Bay Pkwy,3,N07,N,40.611815,-73.981848,N07_N
382,Bay Ridge - 95 St,1,R45,R,40.616622,-74.030876,R45_R
383,Bay Ridge Av,1,R42,R,40.634967,-74.023377,R42_R
384,Bay Terrace,1,S20,SI,40.5564,-74.136907,S20_SI
385,Baychester Av,1,502,5,40.878663,-73.838591,502_5
386,Beach 105 St,2,H14,A,40.583209,-73.827559,H14_A
387,Beach 105 St,2,H14,H,40.583209,-73.827559,H14_H
388,Beach 25 St,1,H10,A,40.600066,-73.761353,H10_A
389,Beach 36 St,1,H09,A,40.595398,-73.768175,H09_A
390,Beach 44 St,1,H08,A,40.592943,-73.776013,H08_A
391,Beach 60 St,1,H07,A,40.592374,-73.788522,H07_A
392,Beach 67 St,1,H06,A,40.590927,-73.796924,H06_A
393,Beach 90 St,2,H12,A,40.588034,-73.813641,H12_A
394,Beach 90 St,2,H12,H,40.588034,-73.813641,H12_H
395,Beach 98 St,2,H13,A,40.585307,-73.820558,H13_A
396,Beach 98 St,2,H13,H,40.585307,-73.820558,H13_H
397,Bedford - Nostrand Avs,1,G33,G,40.689627,-73.953522,G33_G
398,Bedford Av,1,L08,L,40.717304,-73.956872,L08_L
399,Bedford Park Blvd,2,D03,B,40.873244,-73.887138,D03_B
400,Bedford Park Blvd,2,D03,D,40.873244,-73.887138,D03_D
401,Bedford Park Blvd - Lehman College,1,405,4,40.873412,-73.890064,405_4
402,Bergen St,5,236,2,40.680829,-73.975098,236_2
403,Bergen St,5,236,3,40.680829,-73.975098,236_3
404,Bergen St,5,236,4,40.680829,-73.975098,236_4
405,Bergen St,5,F20,F,40.686145,-73.990862,F20_F
406,Bergen St,5,F20,G,40.686145,-73.990862,F20_G
407,Beverley Rd,1,D29,Q,40.644031,-73.964492,D29_Q
408,Beverly Rd,2,245,2,40.645098,-73.948959,245_2
409,Beverly Rd,2,245,5,40.645098,-73.948959,245_5
410,Bleecker St,2,637,4,40.725915,-73.994659,637_4
411,Bleecker St,2,637,6,40.725915,-73.994659,637_6
412,Borough Hall,5,232,2,40.693219,-73.989998,232_2
413,Borough Hall,5,423,2,40.692404,-73.990151,423_2
414,Borough Hall,5,232,3,40.693219,-73.989998,232_3
415,Borough Hall,5,423,4,40.692404,-73.990151,423_4
416,Borough Hall,5,423,5,40.692404,-73.990151,423_5
417,Botanic Garden,1,S04,FS,40.670343,-73.959245,S04_FS
418,Bowery,2,M19,J,40.72028,-73.993915,M19_J
419,Bowery,2,M19,M,40.72028,-73.993915,M19_M
420,Bowling Green,3,420,2,40.704817,-74.014065,420_2
421,Bowling Green,3,420,4,40.704817,-74.014065,420_4
422,Bowling Green,3,420,5,40.704817,-74.014065,420_5
423,Briarwood - Van Wyck Blvd,2,F05,E,40.709179,-73.820574,F05_E
424,Briarwood - Van Wyck Blvd,2,F05,F,40.709179,-73.820574,F05_F
425,Brighton Beach,2,D40,B,40.577621,-73.961376,D40_B
426,Brighton Beach,2,D40,Q,40.577621,-73.961376,D40_Q
427,Broad Channel,2,H04,A,40.608382,-73.815925,H04_A
428,Broad Channel,2,H04,H,40.608382,-73.815925,H04_H
429,Broad St,1,M23,J,40.706476,-74.011056,M23_J
430,Broadway,3,G30,G,40.706092,-73.950308,G30_G
431,Broadway,3,R05,N,40.76182,-73.925508,R05_N
432,Broadway,3,R05,W,40.76182,-73.925508,R05_W
433,Broadway Jct,5,A51,A,40.678334,-73.905316,A51_A
434,Broadway Jct,5,A51,C,40.678334,-73.905316,A51_C
435,Broadway Jct,5,J27,J,40.679498,-73.904512,J27_J
436,Broadway Jct,5,L22,L,40.678856,-73.90324,L22_L
437,Broadway Jct,5,J27,M,40.679498,-73.904512,J27_M
438,Broadway-Lafayette St,4,D21,B,40.725297,-73.996204,D21_B
439,Broadway-Lafayette St,4,D21,D,40.725297,-73.996204,D21_D
440,Broadway-Lafayette St,4,D21,F,40.725297,-73.996204,D21_F
441,Broadway-Lafayette St,4,D21,M,40.725297,-73.996204,D21_M
442,Bronx Park East,2,212,2,40.848828,-73.868457,212_2
443,Bronx Park East,2,212,5,40.848828,-73.868457,212_5
444,Brook Av,1,618,6,40.807566,-73.91924,618_6
445,Brooklyn Bridge - City Hall,4,640,2,40.713065,-74.004131,640_2
446,Brooklyn Bridge - City Hall,4,640,4,40.713065,-74.004131,640_4
447,Brooklyn Bridge - City Hall,4,640,5,40.713065,-74.004131,640_5
448,Brooklyn Bridge - City Hall,4,640,6,40.713065,-74.004131,640_6
449,Buhre Av,1,602,6,40.84681,-73.832569,602_6
450,Burke Av,2,209,2,40.871356,-73.867164,209_2
451,Burke Av,2,209,5,40.871356,-73.867164,209_5
452,Burnside Av,1,409,4,40.853453,-73.907684,409_4
453,Bushwick Av - Aberdeen St,1,L21,L,40.682829,-73.905249,L21_L
454,Canal St,15,135,1,40.722854,-74.006277,135_1
455,Canal St,15,135,2,40.722854,-74.006277,135_2
456,Canal St,15,639,4,40.718803,-74.000193,639_4
457,Canal St,15,135,5,40.722854,-74.006277,135_5
458,Canal St,15,639,6,40.718803,-74.000193,639_6
459,Canal St,15,A34,A,40.720824,-74.005229,A34_A
460,Canal St,15,A34,C,40.720824,-74.005229,A34_C
461,Canal St,15,A34,E,40.720824,-74.005229,A34_E
462,Canal St,15,M20,J,40.718092,-73.999892,M20_J
463,Canal St,15,M20,M,40.718092,-73.999892,M20_M
464,Canal St,15,Q01,N,40.718383,-74.00046,Q01_N
465,Canal St,15,R23,N,40.719527,-74.001775,R23_N
466,Canal St,15,Q01,Q,40.718383,-74.00046,Q01_Q
467,Canal St,15,R23,R,40.719527,-74.001775,R23_R
468,Canal St,15,R23,W,40.719527,-74.001775,R23_W
469,Canarsie - Rockaway Pkwy,1,L29,L,40.646654,-73.90185,L29_L
470,Carroll St,2,F21,F,40.680303,-73.995048,F21_F
471,Carroll St,2,F21,G,40.680303,-73.995048,F21_G
472,Castle Hill Av,1,607,6,40.834255,-73.851222,607_6
473,Cathedral Pkwy,1,118,1,40.803967,-73.966847,118_1
474,Cathedral Pkwy (110 St),3,A17,A,40.800603,-73.958161,A17_A
475,Cathedral Pkwy (110 St),3,A17,B,40.800603,-73.958161,A17_B
476,Cathedral Pkwy (110 St),3,A17,C,40.800603,-73.958161,A17_C
477,Central Park North (110 St),3,227,2,40.799075,-73.951822,227_2
478,Central Park North (110 St),3,227,3,40.799075,-73.951822,227_3
479,Central Park North (110 St),3,227,5,40.799075,-73.951822,227_5
480,Chambers St,8,137,1,40.715478,-74.009266,137_1
481,Chambers St,8,137,2,40.715478,-74.009266,137_2
482,Chambers St,8,137,3,40.715478,-74.009266,137_3
483,Chambers St,8,137,5,40.715478,-74.009266,137_5
484,Chambers St,8,A36,A,40.714111,-74.008585,A36_A
485,Chambers St,8,A36,C,40.714111,-74.008585,A36_C
486,Chambers St,8,M21,J,40.713243,-74.003401,M21_J
487,Chambers St,8,M21,M,40.713243,-74.003401,M21_M
488,Chauncey St,2,J28,J,40.682893,-73.910456,J28_J
489,Chauncey St,2,J28,M,40.682893,-73.910456,J28_M
490,Christopher St - Sheridan Sq,3,133,1,40.733422,-74.002906,133_1
491,Christopher St - Sheridan Sq,3,133,2,40.733422,-74.002906,133_2
492,Christopher St - Sheridan Sq,3,133,5,40.733422,-74.002906,133_5
493,Church Av,6,244,2,40.650843,-73.949575,244_2
494,Church Av,6,244,5,40.650843,-73.949575,244_5
495,Church Av,6,D28,B,40.650527,-73.962982,D28_B
496,Church Av,6,F27,F,40.644041,-73.979678,F27_F
497,Church Av,6,F27,G,40.644041,-73.979678,F27_G
498,Church Av,6,D28,Q,40.650527,-73.962982,D28_Q
499,City Hall,3,R24,N,40.713282,-74.006978,R24_N
500,City Hall,3,R24,R,40.713282,-74.006978,R24_R
501,City Hall,3,R24,W,40.713282,-74.006978,R24_W
502,Clark St,2,231,2,40.697466,-73.993086,231_2
503,Clark St,2,231,3,40.697466,-73.993086,231_3
504,Classon Av,1,G34,G,40.688873,-73.96007,G34_G
505,Cleveland St,1,J22,J,40.679947,-73.884639,J22_J
506,Clifton,1,S28,SI,40.621319,-74.071402,S28_SI
507,Clinton - Washington Avs,3,A44,A,40.683263,-73.965838,A44_A
508,Clinton - Washington Avs,3,A44,C,40.683263,-73.965838,A44_C
509,Clinton - Washington Avs,3,G35,G,40.688089,-73.966839,G35_G
510,Coney Island - Stillwell Av,4,D43,D,40.577422,-73.981233,D43_D
511,Coney Island - Stillwell Av,4,D43,F,40.577422,-73.981233,D43_F
512,Coney Island - Stillwell Av,4,D43,N,40.577422,-73.981233,D43_N
513,Coney Island - Stillwell Av,4,D43,Q,40.577422,-73.981233,D43_Q
514,Cortelyou Rd,1,D30,Q,40.640927,-73.963891,D30_Q
515,Cortlandt St,5,138,1,40.711835,-74.012188,138_1
516,Cortlandt St,5,138,5,40.711835,-74.012188,138_5
517,Cortlandt St,5,R25,N,40.710668,-74.011029,R25_N
518,Cortlandt St,5,R25,R,40.710668,-74.011029,R25_R
519,Cortlandt St,5,R25,W,40.710668,-74.011029,R25_W
520,Court Sq,4,719,7,40.747023,-73.945264,719_7
521,Court Sq,4,F09,E,40.747846,-73.946,F09_E
522,Court Sq,4,G22,G,40.746554,-73.943832,G22_G
523,Court Sq,4,F09,M,40.747846,-73.946,F09_M
524,Court St,2,R28,N,40.6941,-73.991777,R28_N
525,Court St,2,R28,R,40.6941,-73.991777,R28_R
526,Crescent St,1,J20,J,40.683194,-73.873785,J20_J
527,Crown Hts - Utica Av,4,250,2,40.668897,-73.932942,250_2
528,Crown Hts - Utica Av,4,250,3,40.668897,-73.932942,250_3
529,Crown Hts - Utica Av,4,250,4,40.668897,-73.932942,250_4
530,Crown Hts - Utica Av,4,250,5,40.668897,-73.932942,250_5
531,Cypress Av,1,617,6,40.805368,-73.914042,617_6
532,Cypress Hills,1,J19,J,40.689941,-73.87255,J19_J
533,DeKalb Av,6,R30,B,40.690635,-73.981824,R30_B
534,DeKalb Av,6,R30,D,40.690635,-73.981824,R30_D
535,DeKalb Av,6,L16,L,40.703811,-73.918425,L16_L
536,DeKalb Av,6,R30,N,40.690635,-73.981824,R30_N
537,DeKalb Av,6,R30,Q,40.690635,-73.981824,R30_Q
538,DeKalb Av,6,R30,R,40.690635,-73.981824,R30_R
539,Delancey St,1,F15,F,40.718611,-73.988114,F15_F
540,Ditmas Av,1,F29,F,40.636119,-73.978172,F29_F
541,Dongan Hills,1,S25,SI,40.588849,-74.09609,S25_SI
542,Dyckman St,2,109,1,40.860531,-73.925536,109_1
543,Dyckman St,2,A03,A,40.865491,-73.927271,A03_A
544,E 105 St,1,L28,L,40.650573,-73.899485,L28_L
545,E 143 St - St Mary's St,1,616,6,40.808719,-73.907657,616_6
546,E 149 St,1,615,6,40.812118,-73.904098,615_6
547,E 180 St,2,213,2,40.841894,-73.873488,213_2
548,E 180 St,2,213,5,40.841894,-73.873488,213_5
549,East Broadway,1,F16,F,40.713715,-73.990173,F16_F
550,Eastchester - Dyre Av,1,501,5,40.8883,-73.830834,501_5
551,Eastern Pkwy - Brooklyn Museum,3,238,2,40.671987,-73.964375,238_2
552,Eastern Pkwy - Brooklyn Museum,3,238,3,40.671987,-73.964375,238_3
553,Eastern Pkwy - Brooklyn Museum,3,238,4,40.671987,-73.964375,238_4
554,Elder Av,1,611,6,40.828584,-73.879159,611_6
555,Elmhurst Av,3,G13,E,40.742454,-73.882017,G13_E
556,Elmhurst Av,3,G13,M,40.742454,-73.882017,G13_M
557,Elmhurst Av,3,G13,R,40.742454,-73.882017,G13_R
558,Eltingville,1,S18,SI,40.544601,-74.16457,S18_SI
559,Essex St,2,M18,J,40.718315,-73.987437,M18_J
560,Essex St,2,M18,M,40.718315,-73.987437,M18_M
561,Euclid Av,2,A55,A,40.675377,-73.872106,A55_A
562,Euclid Av,2,A55,C,40.675377,-73.872106,A55_C
563,Far Rockaway - Mott Av,1,H11,A,40.603995,-73.755405,H11_A
564,Flatbush Av - Brooklyn College,2,247,2,40.632836,-73.947642,247_2
565,Flatbush Av - Brooklyn College,2,247,5,40.632836,-73.947642,247_5
566,Flushing - Main St,1,701,7,40.7596,-73.83003,701_7
567,Flushing Av,3,G31,G,40.700377,-73.950234,G31_G
568,Flushing Av,3,M12,J,40.70026,-73.941126,M12_J
569,Flushing Av,3,M12,M,40.70026,-73.941126,M12_M
570,Fordham Rd,3,407,4,40.862803,-73.901034,407_4
571,Fordham Rd,3,D05,B,40.861296,-73.897749,D05_B
572,Fordham Rd,3,D05,D,40.861296,-73.897749,D05_D
573,Forest Av,1,M05,M,40.704423,-73.903077,M05_M
574,Forest Hills - 71 Av,4,G08,E,40.721691,-73.844521,G08_E
575,Forest Hills - 71 Av,4,G08,F,40.721691,-73.844521,G08_F
576,Forest Hills - 71 Av,4,G08,M,40.721691,-73.844521,G08_M
577,Forest Hills - 71 Av,4,G08,R,40.721691,-73.844521,G08_R
578,Fort Hamilton Pkwy,4,B13,D,40.640914,-73.994304,B13_D
579,Fort Hamilton Pkwy,4,F26,F,40.650782,-73.975776,F26_F
580,Fort Hamilton Pkwy,4,F26,G,40.650782,-73.975776,F26_G
581,Fort Hamilton Pkwy,4,N03,N,40.631386,-74.005351,N03_N
582,Franklin Av,7,239,2,40.670682,-73.958131,239_2
583,Franklin Av,7,239,3,40.670682,-73.958131,239_3
584,Franklin Av,7,239,4,40.670682,-73.958131,239_4
585,Franklin Av,7,239,5,40.670682,-73.958131,239_5
586,Franklin Av,7,A45,A,40.68138,-73.956848,A45_A
587,Franklin Av,7,A45,C,40.68138,-73.956848,A45_C
588,Franklin Av,7,S01,FS,40.680596,-73.955827,S01_FS
589,Franklin St,3,136,1,40.719318,-74.006886,136_1
590,Franklin St,3,136,2,40.719318,-74.006886,136_2
591,Franklin St,3,136,5,40.719318,-74.006886,136_5
592,Freeman St,2,216,2,40.829993,-73.891865,216_2
593,Freeman St,2,216,5,40.829993,-73.891865,216_5
594,Fresh Pond Rd,1,M04,M,40.706186,-73.895877,M04_M
595,Fulton St,9,229,2,40.709416,-74.006571,229_2
596,Fulton St,9,418,2,40.710368,-74.009509,418_2
597,Fulton St,9,229,3,40.709416,-74.006571,229_3
598,Fulton St,9,418,4,40.710368,-74.009509,418_4
599,Fulton St,9,418,5,40.710368,-74.009509,418_5
600,Fulton St,9,A38,A,40.710197,-74.007691,A38_A
601,Fulton St,9,A38,C,40.710197,-74.007691,A38_C
602,Fulton St,9,G36,G,40.687119,-73.975375,G36_G
603,Fulton St,9,M22,J,40.710374,-74.007582,M22_J
604,Gates Av,2,J30,J,40.68963,-73.92227,J30_J
605,Gates Av,2,J30,M,40.68963,-73.92227,J30_M
606,Graham Av,1,L11,L,40.714565,-73.944053,L11_L
607,Grand Army Plaza,3,237,2,40.675235,-73.971046,237_2
608,Grand Army Plaza,3,237,3,40.675235,-73.971046,237_3
609,Grand Army Plaza,3,237,4,40.675235,-73.971046,237_4
610,Grand Av - Newtown,3,G12,E,40.737015,-73.877223,G12_E
611,Grand Av - Newtown,3,G12,M,40.737015,-73.877223,G12_M
612,Grand Av - Newtown,3,G12,R,40.737015,-73.877223,G12_R
613,Grand Central - 42 St,6,631,2,40.751776,-73.976848,631_2
614,Grand Central - 42 St,6,631,4,40.751776,-73.976848,631_4
615,Grand Central - 42 St,6,631,5,40.751776,-73.976848,631_5
616,Grand Central - 42 St,6,631,6,40.751776,-73.976848,631_6
617,Grand Central - 42 St,6,723,7,40.751431,-73.976041,723_7
618,Grand Central - 42 St,6,901,GS,40.752769,-73.979189,901_GS
619,Grand St,3,D22,B,40.718267,-73.993753,D22_B
620,Grand St,3,D22,D,40.718267,-73.993753,D22_D
621,Grand St,3,L12,L,40.711926,-73.94067,L12_L
622,Grant Av,1,A57,A,40.677044,-73.86505,A57_A
623,Grant City,1,S23,SI,40.578965,-74.109704,S23_SI
624,Grasmere,1,S27,SI,40.603117,-74.084087,S27_SI
625,Great Kills,1,S19,SI,40.551231,-74.151399,S19_SI
626,Greenpoint Av,1,G26,G,40.731352,-73.954449,G26_G
627,Gun Hill Rd,3,208,2,40.87785,-73.866256,208_2
628,Gun Hill Rd,3,208,5,40.87785,-73.866256,208_5
629,Gun Hill Rd,3,503,5,40.869526,-73.846384,503_5
630,Halsey St,3,J29,J,40.68637,-73.916559,J29_J
631,Halsey St,3,L19,L,40.695602,-73.904084,L19_L
632,Halsey St,3,J29,M,40.68637,-73.916559,J29_M
633,Harlem - 148 St,1,301,3,40.82388,-73.93647,301_3
634,Hewes St,2,M14,J,40.70687,-73.953431,M14_J
635,Hewes St,2,M14,M,40.70687,-73.953431,M14_M
636,High St,2,A40,A,40.699337,-73.990531,A40_A
637,High St,2,A40,C,40.699337,-73.990531,A40_C
638,Houston St,3,134,1,40.728251,-74.005367,134_1
639,Houston St,3,134,2,40.728251,-74.005367,134_2
640,Houston St,3,134,5,40.728251,-74.005367,134_5
641,Howard Beach - JFK Airport,1,H03,A,40.660476,-73.830301,H03_A
642,Hoyt - Schermerhorn Sts,3,A42,A,40.688484,-73.985001,A42_A
643,Hoyt - Schermerhorn Sts,3,A42,C,40.688484,-73.985001,A42_C
644,Hoyt - Schermerhorn Sts,3,A42,G,40.688484,-73.985001,A42_G
645,Hoyt St,2,233,2,40.690545,-73.985065,233_2
646,Hoyt St,2,233,3,40.690545,-73.985065,233_3
647,Huguenot,1,S16,SI,40.533674,-74.191794,S16_SI
648,Hunters Point Av,1,720,7,40.742216,-73.948916,720_7
649,Hunts Point Av,1,613,6,40.820948,-73.890549,613_6
650,Intervale Av,2,218,2,40.822181,-73.896736,218_2
651,Intervale Av,2,218,5,40.822181,-73.896736,218_5
652,Inwood - 207 St,1,A02,A,40.868072,-73.919899,A02_A
653,Jackson Av,2,220,2,40.81649,-73.907807,220_2
654,Jackson Av,2,220,5,40.81649,-73.907807,220_5
655,Jackson Hts - Roosevelt Av,4,G14,E,40.746644,-73.891338,G14_E
656,Jackson Hts - Roosevelt Av,4,G14,F,40.746644,-73.891338,G14_F
657,Jackson Hts - Roosevelt Av,4,G14,M,40.746644,-73.891338,G14_M
658,Jackson Hts - Roosevelt Av,4,G14,R,40.746644,-73.891338,G14_R
659,Jamaica - 179 St,2,F01,E,40.712646,-73.783817,F01_E
660,Jamaica - 179 St,2,F01,F,40.712646,-73.783817,F01_F
661,Jamaica - Van Wyck,1,G07,E,40.702566,-73.816859,G07_E
662,Jamaica Center - Parsons/Archer,2,G05,E,40.702147,-73.801109,G05_E
663,Jamaica Center - Parsons/Archer,2,G05,J,40.702147,-73.801109,G05_J
664,Jay St - MetroTech,5,A41,A,40.692338,-73.987342,A41_A
665,Jay St - MetroTech,5,A41,C,40.692338,-73.987342,A41_C
666,Jay St - MetroTech,5,A41,F,40.692338,-73.987342,A41_F
667,Jay St - MetroTech,5,R29,N,40.69218,-73.985942,R29_N
668,Jay St - MetroTech,5,R29,R,40.69218,-73.985942,R29_R
669,Jefferson Av,1,S24,SI,40.583591,-74.103338,S24_SI
670,Jefferson St,1,L15,L,40.706607,-73.922913,L15_L
671,Junction Blvd,1,707,7,40.749145,-73.869527,707_7
672,Junius St,4,254,2,40.663515,-73.902447,254_2
673,Junius St,4,254,3,40.663515,-73.902447,254_3
674,Junius St,4,254,4,40.663515,-73.902447,254_4
675,Junius St,4,254,5,40.663515,-73.902447,254_5
676,Kew Gardens - Union Tpke,2,F06,E,40.714441,-73.831008,F06_E
677,Kew Gardens - Union Tpke,2,F06,F,40.714441,-73.831008,F06_F
678,Kings Hwy,4,D35,B,40.60867,-73.957734,D35_B
679,Kings Hwy,4,F35,F,40.603217,-73.972361,F35_F
680,Kings Hwy,4,N08,N,40.603923,-73.980353,N08_N
681,Kings Hwy,4,D35,Q,40.60867,-73.957734,D35_Q
682,Kingsbridge Rd,3,406,4,40.86776,-73.897174,406_4
683,Kingsbridge Rd,3,D04,B,40.866978,-73.893509,D04_B
684,Kingsbridge Rd,3,D04,D,40.866978,-73.893509,D04_D
685,Kingston - Throop Avs,2,A47,A,40.679921,-73.940858,A47_A
686,Kingston - Throop Avs,2,A47,C,40.679921,-73.940858,A47_C
687,Kingston Av,4,249,2,40.669399,-73.942161,249_2
688,Kingston Av,4,249,3,40.669399,-73.942161,249_3
689,Kingston Av,4,249,4,40.669399,-73.942161,249_4
690,Kingston Av,4,249,5,40.669399,-73.942161,249_5
691,Kosciuszko St,2,J31,J,40.693342,-73.928814,J31_J
692,Kosciuszko St,2,J31,M,40.693342,-73.928814,J31_M
693,Lafayette Av,2,A43,A,40.686113,-73.973946,A43_A
694,Lafayette Av,2,A43,C,40.686113,-73.973946,A43_C
695,Lexington Av/53 St,2,F11,E,40.757552,-73.969055,F11_E
696,Lexington Av/53 St,2,F11,M,40.757552,-73.969055,F11_M
697,Lexington Av/59 St,3,R11,N,40.76266,-73.967258,R11_N
698,Lexington Av/59 St,3,R11,R,40.76266,-73.967258,R11_R
699,Lexington Av/59 St,3,R11,W,40.76266,-73.967258,R11_W
700,Lexington Av/63 St,4,B08,F,40.764629,-73.966113,B08_F
701,Lexington Av/63 St,4,B08,N,40.764629,-73.966113,B08_N
702,Lexington Av/63 St,4,B08,Q,40.764629,-73.966113,B08_Q
703,Lexington Av/63 St,4,B08,R,40.764629,-73.966113,B08_R
704,Liberty Av,2,A52,A,40.674542,-73.896548,A52_A
705,Liberty Av,2,A52,C,40.674542,-73.896548,A52_C
706,Livonia Av,1,L26,L,40.664038,-73.900571,L26_L
707,Longwood Av,1,614,6,40.816104,-73.896435,614_6
708,Lorimer St,3,M13,J,40.703869,-73.947408,M13_J
709,Lorimer St,3,L10,L,40.714063,-73.950275,L10_L
710,Lorimer St,3,M13,M,40.703869,-73.947408,M13_M
711,Marble Hill - 225 St,1,106,1,40.874561,-73.909831,106_1
712,Marcy Av,2,M16,J,40.708359,-73.957757,M16_J
713,Marcy Av,2,M16,M,40.708359,-73.957757,M16_M
714,Metropolitan Av,1,G29,G,40.712792,-73.951418,G29_G
715,Mets - Willets Point,1,702,7,40.754622,-73.845625,702_7
716,Middle Village - Metropolitan Av,1,M01,M,40.711396,-73.889601,M01_M
717,Middletown Rd,1,603,6,40.843863,-73.836322,603_6
718,Montrose Av,1,L13,L,40.707739,-73.93985,L13_L
719,Morgan Av,1,L14,L,40.706152,-73.933147,L14_L
720,Morris Park,1,505,5,40.854364,-73.860495,505_5
721,Morrison Av- Sound View,1,610,6,40.829521,-73.874516,610_6
722,Mosholu Pkwy,1,402,4,40.87975,-73.884655,402_4
723,Mt Eden Av,1,411,4,40.844434,-73.914685,411_4
724,Myrtle - Willoughby Avs,1,G32,G,40.694568,-73.949046,G32_G
725,Myrtle - Wyckoff Avs,2,L17,L,40.699814,-73.911586,L17_L
726,Myrtle - Wyckoff Avs,2,M08,M,40.69943,-73.912385,M08_M
727,Myrtle Av,2,M11,J,40.697207,-73.935657,M11_J
728,Myrtle Av,2,M11,M,40.697207,-73.935657,M11_M
729,Nassau Av,1,G28,G,40.724635,-73.951277,G28_G
730,Neck Rd,1,D38,Q,40.595246,-73.955161,D38_Q
731,Neptune Av,1,F39,F,40.581011,-73.974574,F39_F
732,Nereid Av,2,204,2,40.898379,-73.854376,204_2
733,Nereid Av,2,204,5,40.898379,-73.854376,204_5
734,Nevins St,4,234,2,40.688246,-73.980492,234_2
735,Nevins St,4,234,3,40.688246,-73.980492,234_3
736,Nevins St,4,234,4,40.688246,-73.980492,234_4
737,Nevins St,4,234,5,40.688246,-73.980492,234_5
738,New Dorp,1,S22,SI,40.57348,-74.11721,S22_SI
739,New Lots Av,5,257,2,40.666235,-73.884079,257_2
740,New Lots Av,5,257,3,40.666235,-73.884079,257_3
741,New Lots Av,5,257,4,40.666235,-73.884079,257_4
742,New Lots Av,5,257,5,40.666235,-73.884079,257_5
743,New Lots Av,5,L27,L,40.658733,-73.899232,L27_L
744,New Utrecht Av,1,N04,N,40.624842,-73.996353,N04_N
745,Newkirk Av,2,246,2,40.639967,-73.948411,246_2
746,Newkirk Av,2,246,5,40.639967,-73.948411,246_5
747,Newkirk Plaza,2,D31,B,40.635082,-73.962793,D31_B
748,Newkirk Plaza,2,D31,Q,40.635082,-73.962793,D31_Q
749,Northern Blvd,3,G16,E,40.752885,-73.906006,G16_E
750,Northern Blvd,3,G16,M,40.752885,-73.906006,G16_M
751,Northern Blvd,3,G16,R,40.752885,-73.906006,G16_R
752,Norwood - 205 St,1,D01,D,40.874811,-73.878855,D01_D
753,Norwood Av,1,J21,J,40.68141,-73.880039,J21_J
754,Nostrand Av,6,248,2,40.669847,-73.950466,248_2
755,Nostrand Av,6,248,3,40.669847,-73.950466,248_3
756,Nostrand Av,6,248,4,40.669847,-73.950466,248_4
757,Nostrand Av,6,248,5,40.669847,-73.950466,248_5
758,Nostrand Av,6,A46,A,40.680438,-73.950426,A46_A
759,Nostrand Av,6,A46,C,40.680438,-73.950426,A46_C
760,Oakwood Heights,1,S21,SI,40.56511,-74.12632,S21_SI
761,Ocean Pkwy,1,D41,Q,40.576312,-73.968501,D41_Q
762,Old Town,1,S26,SI,40.596612,-74.087368,S26_SI
763,Ozone Park - Lefferts Blvd,1,A65,A,40.685951,-73.825798,A65_A
764,Park Pl,3,228,2,40.713051,-74.008811,228_2
765,Park Pl,3,228,3,40.713051,-74.008811,228_3
766,Park Pl,3,S03,FS,40.674772,-73.957624,S03_FS
767,Parkchester,1,608,6,40.833226,-73.860816,608_6
768,Parkside Av,1,D27,Q,40.655292,-73.961495,D27_Q
769,Parsons Blvd,2,F03,E,40.707564,-73.803326,F03_E
770,Parsons Blvd,2,F03,F,40.707564,-73.803326,F03_F
771,Pelham Bay Park,1,601,6,40.852462,-73.828121,601_6
772,Pelham Pkwy,3,211,2,40.857192,-73.867615,211_2
773,Pelham Pkwy,3,211,5,40.857192,-73.867615,211_5
774,Pelham Pkwy,3,504,5,40.858985,-73.855359,504_5
775,Pennsylvania Av,4,255,2,40.664635,-73.894895,255_2
776,Pennsylvania Av,4,255,3,40.664635,-73.894895,255_3
777,Pennsylvania Av,4,255,4,40.664635,-73.894895,255_4
778,Pennsylvania Av,4,255,5,40.664635,-73.894895,255_5
779,Pleasant Plains,1,S14,SI,40.52241,-74.217847,S14_SI
780,President St,2,241,2,40.667883,-73.950683,241_2
781,President St,2,241,5,40.667883,-73.950683,241_5
782,Prince St,4,R22,N,40.724329,-73.997702,R22_N
783,Prince St,4,R22,Q,40.724329,-73.997702,R22_Q
784,Prince St,4,R22,R,40.724329,-73.997702,R22_R
785,Prince St,4,R22,W,40.724329,-73.997702,R22_W
786,Prince's Bay,1,S15,SI,40.525507,-74.200064,S15_SI
787,Prospect Av,5,219,2,40.819585,-73.90177,219_2
788,Prospect Av,5,219,5,40.819585,-73.90177,219_5
789,Prospect Av,5,R34,D,40.665414,-73.992872,R34_D
790,Prospect Av,5,R34,N,40.665414,-73.992872,R34_N
791,Prospect Av,5,R34,R,40.665414,-73.992872,R34_R
792,Prospect Park,3,D26,B,40.661614,-73.962246,D26_B
793,Prospect Park,3,D26,FS,40.661614,-73.962246,D26_FS
794,Prospect Park,3,D26,Q,40.661614,-73.962246,D26_Q
795,Queens Plaza,3,G21,E,40.748973,-73.937243,G21_E
796,Queens Plaza,3,G21,M,40.748973,-73.937243,G21_M
797,Queens Plaza,3,G21,R,40.748973,-73.937243,G21_R
798,Queensboro Plaza,3,718,7,40.750582,-73.940202,718_7
799,Queensboro Plaza,3,R09,N,40.750582,-73.940202,R09_N
800,Queensboro Plaza,3,R09,W,40.750582,-73.940202,R09_W
801,Ralph Av,2,A49,A,40.678822,-73.920786,A49_A
802,Ralph Av,2,A49,C,40.678822,-73.920786,A49_C
803,Rector St,5,139,1,40.707513,-74.013783,139_1
804,Rector St,5,139,5,40.707513,-74.013783,139_5
805,Rector St,5,R26,N,40.70722,-74.013342,R26_N
806,Rector St,5,R26,R,40.70722,-74.013342,R26_R
807,Rector St,5,R26,W,40.70722,-74.013342,R26_W
808,Richmond Valley,1,S13,SI,40.519631,-74.229141,S13_SI
809,Rockaway Av,6,253,2,40.662549,-73.908946,253_2
810,Rockaway Av,6,253,3,40.662549,-73.908946,253_3
811,Rockaway Av,6,253,4,40.662549,-73.908946,253_4
812,Rockaway Av,6,253,5,40.662549,-73.908946,253_5
813,Rockaway Av,6,A50,A,40.67834,-73.911946,A50_A
814,Rockaway Av,6,A50,C,40.67834,-73.911946,A50_C
815,Rockaway Blvd,1,A61,A,40.680429,-73.843853,A61_A
816,Rockaway Park - Beach 116 St,2,H15,A,40.580903,-73.835592,H15_A
817,Rockaway Park - Beach 116 St,2,H15,H,40.580903,-73.835592,H15_H
818,Roosevelt Island,1,B06,F,40.759145,-73.95326,B06_F
819,Saratoga Av,4,252,2,40.661453,-73.916327,252_2
820,Saratoga Av,4,252,3,40.661453,-73.916327,252_3
821,Saratoga Av,4,252,4,40.661453,-73.916327,252_4
822,Saratoga Av,4,252,5,40.661453,-73.916327,252_5
823,Seneca Av,1,M06,M,40.702762,-73.90774,M06_M
824,Sheepshead Bay,2,D39,B,40.586896,-73.954155,D39_B
825,Sheepshead Bay,2,D39,Q,40.586896,-73.954155,D39_Q
826,Shepherd Av,2,A54,A,40.67413,-73.88075,A54_A
827,Shepherd Av,2,A54,C,40.67413,-73.88075,A54_C
828,Simpson St,2,217,2,40.824073,-73.893064,217_2
829,Simpson St,2,217,5,40.824073,-73.893064,217_5
830,Smith - 9 Sts,2,F22,F,40.67358,-73.995959,F22_F
831,Smith - 9 Sts,2,F22,G,40.67358,-73.995959,F22_G
832,South Ferry,2,142,1,40.702068,-74.013664,142_1
833,South Ferry,2,142,5,40.702068,-74.013664,142_5
834,Spring St,5,638,4,40.722301,-73.997141,638_4
835,Spring St,5,638,6,40.722301,-73.997141,638_6
836,Spring St,5,A33,A,40.726227,-74.003739,A33_A
837,Spring St,5,A33,C,40.726227,-74.003739,A33_C
838,Spring St,5,A33,E,40.726227,-74.003739,A33_E
839,St George,1,S31,SI,40.643748,-74.073643,S31_SI
840,St Lawrence Av,1,609,6,40.831509,-73.867618,609_6
841,Stapleton,1,S29,SI,40.627915,-74.075162,S29_SI
842,Steinway St,3,G19,E,40.756879,-73.92074,G19_E
843,Steinway St,3,G19,M,40.756879,-73.92074,G19_M
844,Steinway St,3,G19,R,40.756879,-73.92074,G19_R
845,Sterling St,2,242,2,40.662742,-73.95085,242_2
846,Sterling St,2,242,5,40.662742,-73.95085,242_5
847,Sutphin Blvd,1,F04,F,40.70546,-73.810708,F04_F
848,Sutphin Blvd - Archer Av - JFK Airport,2,G06,E,40.700486,-73.807969,G06_E
849,Sutphin Blvd - Archer Av - JFK Airport,2,G06,J,40.700486,-73.807969,G06_J
850,Sutter Av,1,L25,L,40.669367,-73.901975,L25_L
851,Sutter Av - Rutland Rd,4,251,2,40.664717,-73.92261,251_2
852,Sutter Av - Rutland Rd,4,251,3,40.664717,-73.92261,251_3
853,Sutter Av - Rutland Rd,4,251,4,40.664717,-73.92261,251_4
854,Sutter Av - Rutland Rd,4,251,5,40.664717,-73.92261,251_5
855,Times Sq - 42 St,10,127,1,40.75529,-73.987495,127_1
856,Times Sq - 42 St,10,127,2,40.75529,-73.987495,127_2
857,Times Sq - 42 St,10,127,3,40.75529,-73.987495,127_3
858,Times Sq - 42 St,10,127,5,40.75529,-73.987495,127_5
859,Times Sq - 42 St,10,725,7,40.755477,-73.987691,725_7
860,Times Sq - 42 St,10,902,GS,40.755983,-73.986229,902_GS
861,Times Sq - 42 St,10,R16,N,40.754672,-73.986754,R16_N
862,Times Sq - 42 St,10,R16,Q,40.754672,-73.986754,R16_Q
863,Times Sq - 42 St,10,R16,R,40.754672,-73.986754,R16_R
864,Times Sq - 42 St,10,R16,W,40.754672,-73.986754,R16_W
865,Tompkinsville,1,S30,SI,40.636949,-74.074835,S30_SI
866,Tottenville,1,S09,SI,40.512764,-74.251961,S09_SI
867,Tremont Av,2,D07,B,40.85041,-73.905227,D07_B
868,Tremont Av,2,D07,D,40.85041,-73.905227,D07_D
869,Union Sq - 14 St,1,L03,L,40.734789,-73.99073,L03_L
870,Union St,3,R32,D,40.677316,-73.98311,R32_D
871,Union St,3,R32,N,40.677316,-73.98311,R32_N
872,Union St,3,R32,R,40.677316,-73.98311,R32_R
873,Utica Av,2,A48,A,40.679364,-73.930729,A48_A
874,Utica Av,2,A48,C,40.679364,-73.930729,A48_C
875,Van Cortlandt Park - 242 St,1,101,1,40.889248,-73.898583,101_1
876,Van Siclen Av,7,256,2,40.665449,-73.889395,256_2
877,Van Siclen Av,7,256,3,40.665449,-73.889395,256_3
878,Van Siclen Av,7,256,4,40.665449,-73.889395,256_4
879,Van Siclen Av,7,256,5,40.665449,-73.889395,256_5
880,Van Siclen Av,7,A53,A,40.67271,-73.890358,A53_A
881,Van Siclen Av,7,A53,C,40.67271,-73.890358,A53_C
882,Van Siclen Av,7,J23,J,40.678024,-73.891688,J23_J
883,Vernon Blvd - Jackson Av,1,721,7,40.742626,-73.953581,721_7
884,W 4 St,7,A32,A,40.732338,-74.000495,A32_A
885,W 4 St,7,D20,B,40.732338,-74.000495,D20_B
886,W 4 St,7,A32,C,40.732338,-74.000495,A32_C
887,W 4 St,7,D20,D,40.732338,-74.000495,D20_D
888,W 4 St,7,A32,E,40.732338,-74.000495,A32_E
889,W 4 St,7,D20,F,40.732338,-74.000495,D20_F
890,W 4 St,7,D20,M,40.732338,-74.000495,D20_M
891,W 8 St - NY Aquarium,2,D42,F,40.576127,-73.975939,D42_F
892,W 8 St - NY Aquarium,2,D42,Q,40.576127,-73.975939,D42_Q
893,Wakefield - 241 St,2,201,2,40.903125,-73.85062,201_2
894,Wakefield - 241 St,2,201,5,40.903125,-73.85062,201_5
895,Wall St,5,230,2,40.706821,-74.0091,230_2
896,Wall St,5,419,2,40.707557,-74.011862,419_2
897,Wall St,5,230,3,40.706821,-74.0091,230_3
898,Wall St,5,419,4,40.707557,-74.011862,419_4
899,Wall St,5,419,5,40.707557,-74.011862,419_5
900,West Farms Sq - E Tremont Av,2,214,2,40.840295,-73.880049,214_2
901,West Farms Sq - E Tremont Av,2,214,5,40.840295,-73.880049,214_5
902,Westchester Sq - E Tremont Av,1,604,6,40.839892,-73.842952,604_6
903,Whitehall St,3,R27,N,40.703087,-74.012994,R27_N
904,Whitehall St,3,R27,R,40.703087,-74.012994,R27_R
905,Whitehall St,3,R27,W,40.703087,-74.012994,R27_W
906,Whitlock Av,1,612,6,40.826525,-73.886283,612_6
907,Wilson Av,1,L20,L,40.688764,-73.904046,L20_L
908,Winthrop St,2,243,2,40.656652,-73.9502,243_2
909,Winthrop St,2,243,5,40.656652,-73.9502,243_5
910,Woodhaven Blvd,4,G11,E,40.733106,-73.869229,G11_E
911,Woodhaven Blvd,4,J15,J,40.693879,-73.851576,J15_J
912,Woodhaven Blvd,4,G11,M,40.733106,-73.869229,G11_M
913,Woodhaven Blvd,4,G11,R,40.733106,-73.869229,G11_R
914,Woodlawn,1,401,4,40.886037,-73.878751,401_4
915,Woodside - 61 St,1,712,7,40.74563,-73.902984,712_7
916,World Trade Center,1,E01,E,40.712582,-74.009781,E01_E
917,York St,1,F18,F,40.701397,-73.986751,F18_F
918,Zerega Av,1,606,6,40.836488,-73.847036,606_6
